{
    "ALT": {"name": "Altoona Mountain Citys", "cityState": "Altoona, PA", "lat": 40.5187, "lon": -78.3947},
    "ANA": {"name": "Anaheim Angels", "cityState": "Anaheim, CA", "lat": 33.8353, "lon": -117.9145},
    "ARI": {"name": "Arizona Diamondbacks", "cityState": "Phoenix, AZ", "lat": 33.4484, "lon": -112.0740},
    "ATL": {"name": "Atlanta Braves", "cityState": "Atlanta, GA", "lat": 33.7490, "lon": -84.3880},
    "BAL": {"name": "Baltimore Orioles", "cityState": "Baltimore, MD", "lat": 39.2904, "lon": -76.6122},
    "BFN": {"name": "Buffalo Bisons (NL)", "cityState": "Buffalo, NY", "lat": 42.8864, "lon": -78.8784},
    "BFP": {"name": "Buffalo Bisons (PL)", "cityState": "Buffalo, NY", "lat": 42.8864, "lon": -78.8784},
    "BL1": {"name": "Baltimore Marylands", "cityState": "Baltimore, MD", "lat": 39.2904, "lon": -76.6122},
    "BL2": {"name": "Baltimore Orioles (AA)", "cityState": "Baltimore, MD", "lat": 39.2904, "lon": -76.6122},
    "BL3": {"name": "Baltimore Orioles (AA)", "cityState": "Baltimore, MD", "lat": 39.2904, "lon": -76.6122},
    "BL4": {"name": "Baltimore Canaries", "cityState": "Baltimore, MD", "lat": 39.2904, "lon": -76.6122},
    "BLA": {"name": "Baltimore Orioles (AL)", "cityState": "Baltimore, MD", "lat": 39.2904, "lon": -76.6122},
    "BLF": {"name": "Baltimore Terrapins", "cityState": "Baltimore, MD", "lat": 39.2904, "lon": -76.6122},
    "BLN": {"name": "Baltimore Orioles (NL)", "cityState": "Baltimore, MD", "lat": 39.2904, "lon": -76.6122},
    "BLU": {"name": "Baltimore Monumentals", "cityState": "Baltimore, MD", "lat": 39.2904, "lon": -76.6122},
    "BOS": {"name": "Boston Red Sox", "cityState": "Boston, MA", "lat": 42.3601, "lon": -71.0589},
    "BR1": {"name": "Brooklyn Atlantics", "cityState": "Brooklyn, NY", "lat": 40.6782, "lon": -73.9442},
    "BR2": {"name": "Brooklyn Eckfords", "cityState": "Brooklyn, NY", "lat": 40.6782, "lon": -73.9442},
    "BR3": {"name": "Brooklyn Bridegrooms", "cityState": "Brooklyn, NY", "lat": 40.6782, "lon": -73.9442},
    "BR4": {"name": "Brooklyn Ward's Wonders", "cityState": "Brooklyn, NY", "lat": 40.6782, "lon": -73.9442},
    "BRF": {"name": "Brooklyn Tip-Tops", "cityState": "Brooklyn, NY", "lat": 40.6782, "lon": -73.9442},
    "BRP": {"name": "Brooklyn Gladiators", "cityState": "Brooklyn, NY", "lat": 40.6782, "lon": -73.9442},
    "BRO": {"name": "Brooklyn Dodgers", "cityState": "Brooklyn, NY", "lat": 40.6782, "lon": -73.9442},
    "BS1": {"name": "Boston Red Stockings", "cityState": "Boston, MA", "lat": 42.3601, "lon": -71.0589},
    "BS2": {"name": "Boston Reds (AA)", "cityState": "Boston, MA", "lat": 42.3601, "lon": -71.0589},
    "BSN": {"name": "Boston Braves", "cityState": "Boston, MA", "lat": 42.3601, "lon": -71.0589},
    "BSP": {"name": "Boston Reds (PL)", "cityState": "Boston, MA", "lat": 42.3601, "lon": -71.0589},
    "BSU": {"name": "Boston Reds (UA)", "cityState": "Boston, MA", "lat": 42.3601, "lon": -71.0589},
    "BUF": {"name": "Buffalo Blues", "cityState": "Buffalo, NY", "lat": 42.8864, "lon": -78.8784},
    "CAL": {"name": "California Angels", "cityState": "Anaheim, CA", "lat": 33.8353, "lon": -117.9145},
    "CH1": {"name": "Chicago White Stockings", "cityState": "Chicago, IL", "lat": 41.8781, "lon": -87.6298},
    "CH2": {"name": "Chicago White Stockings", "cityState": "Chicago, IL", "lat": 41.8781, "lon": -87.6298},
    "CHA": {"name": "Chicago White Sox", "cityState": "Chicago, IL", "lat": 41.8781, "lon": -87.6298},
    "CHF": {"name": "Chicago Whales", "cityState": "Chicago, IL", "lat": 41.8781, "lon": -87.6298},
    "CHN": {"name": "Chicago Cubs", "cityState": "Chicago, IL", "lat": 41.8781, "lon": -87.6298},
    "CHP": {"name": "Chicago Pirates", "cityState": "Chicago, IL", "lat": 41.8781, "lon": -87.6298},
    "CHU": {"name": "Chicago Browns", "cityState": "Chicago, IL", "lat": 41.8781, "lon": -87.6298},
    "CIN": {"name": "Cincinnati Reds", "cityState": "Cincinnati, OH", "lat": 39.1031, "lon": -84.5120},
    "CL1": {"name": "Cleveland Forest Citys", "cityState": "Cleveland, OH", "lat": 41.4993, "lon": -81.6944},
    "CL2": {"name": "Cleveland Blues (NL)", "cityState": "Cleveland, OH", "lat": 41.4993, "lon": -81.6944},
    "CL3": {"name": "Cleveland Spiders", "cityState": "Cleveland, OH", "lat": 41.4993, "lon": -81.6944},
    "CL4": {"name": "Cleveland Spiders", "cityState": "Cleveland, OH", "lat": 41.4993, "lon": -81.6944},
    "CL5": {"name": "Cleveland Blues (UA)", "cityState": "Cleveland, OH", "lat": 41.4993, "lon": -81.6944},
    "CL6": {"name": "Cleveland Spiders", "cityState": "Cleveland, OH", "lat": 41.4993, "lon": -81.6944},
    "CLE": {"name": "Cleveland Indians", "cityState": "Cleveland, OH", "lat": 41.4993, "lon": -81.6944},
    "CLP": {"name": "Cleveland Infants", "cityState": "Cleveland, OH", "lat": 41.4993, "lon": -81.6944},
    "CN1": {"name": "Cincinnati Reds (NL)", "cityState": "Cincinnati, OH", "lat": 39.1031, "lon": -84.5120},
    "CN2": {"name": "Cincinnati Reds (AA)", "cityState": "Cincinnati, OH", "lat": 39.1031, "lon": -84.5120},
    "CN3": {"name": "Cincinnati Kelly's Killers", "cityState": "Cincinnati, OH", "lat": 39.1031, "lon": -84.5120},
    "CNU": {"name": "Cincinnati Outlaw Reds", "cityState": "Cincinnati, OH", "lat": 39.1031, "lon": -84.5120},
    "COL": {"name": "Colorado Rockies", "cityState": "Denver, CO", "lat": 39.7392, "lon": -104.9903},
    "DET": {"name": "Detroit Tigers", "cityState": "Detroit, MI", "lat": 42.3314, "lon": -83.0458},
    "DTN": {"name": "Detroit Wolverines", "cityState": "Detroit, MI", "lat": 42.3314, "lon": -83.0458},
    "ELI": {"name": "Elizabeth Resolutes", "cityState": "Elizabeth, NJ", "lat": 40.6634, "lon": -74.2157},
    "FLO": {"name": "Florida Marlins", "cityState": "Miami, FL", "lat": 25.7617, "lon": -80.1918},
    "FW1": {"name": "Fort Wayne Kekiongas", "cityState": "Fort Wayne, IN", "lat": 41.0793, "lon": -85.1394},
    "HAR": {"name": "Hartford Dark Blues", "cityState": "Hartford, CT", "lat": 41.7658, "lon": -72.6751},
    "HOU": {"name": "Houston Astros", "cityState": "Houston, TX", "lat": 29.7604, "lon": -95.3698},
    "HR1": {"name": "Hartford Dark Blues", "cityState": "Hartford, CT", "lat": 41.7658, "lon": -72.6751},
    "IN1": {"name": "Indianapolis Blues", "cityState": "Indianapolis, IN", "lat": 39.7684, "lon": -86.1581},
    "IN2": {"name": "Indianapolis Hoosiers (AA)", "cityState": "Indianapolis, IN", "lat": 39.7684, "lon": -86.1581},
    "IN3": {"name": "Indianapolis Hoosiers (NL)", "cityState": "Indianapolis, IN", "lat": 39.7684, "lon": -86.1581},
    "IND": {"name": "Indianapolis Hoosiers (FL)", "cityState": "Indianapolis, IN", "lat": 39.7684, "lon": -86.1581},
    "KC1": {"name": "Kansas City Athletics", "cityState": "Kansas City, MO", "lat": 39.0997, "lon": -94.5786},
    "KC2": {"name": "Kansas City Cowboys (AA)", "cityState": "Kansas City, MO", "lat": 39.0997, "lon": -94.5786},
    "KCA": {"name": "Kansas City Royals", "cityState": "Kansas City, MO", "lat": 39.0997, "lon": -94.5786},
    "KCF": {"name": "Kansas City Packers", "cityState": "Kansas City, MO", "lat": 39.0997, "lon": -94.5786},
    "KCN": {"name": "Kansas City Cowboys (NL)", "cityState": "Kansas City, MO", "lat": 39.0997, "lon": -94.5786},
    "KCU": {"name": "Kansas City Cowboys (UA)", "cityState": "Kansas City, MO", "lat": 39.0997, "lon": -94.5786},
    "KEO": {"name": "Keokuk Westerns", "cityState": "Keokuk, IA", "lat": 40.3973, "lon": -91.3846},
    "LAA": {"name": "Los Angeles Angels", "cityState": "Anaheim, CA", "lat": 33.8353, "lon": -117.9145},
    "LAN": {"name": "Los Angeles Dodgers", "cityState": "Los Angeles, CA", "lat": 34.0522, "lon": -118.2437},
    "LS1": {"name": "Louisville Grays", "cityState": "Louisville, KY", "lat": 38.2527, "lon": -85.7585},
    "LS2": {"name": "Louisville Colonels (AA)", "cityState": "Louisville, KY", "lat": 38.2527, "lon": -85.7585},
    "LS3": {"name": "Louisville Colonels (NL)", "cityState": "Louisville, KY", "lat": 38.2527, "lon": -85.7585},
    "MIA": {"name": "Miami Marlins", "cityState": "Miami, FL", "lat": 25.7617, "lon": -80.1918},
    "MID": {"name": "Middletown Mansfields", "cityState": "Middletown, CT", "lat": 41.6259, "lon": -72.6504},
    "MIL": {"name": "Milwaukee Brewers", "cityState": "Milwaukee, WI", "lat": 43.0389, "lon": -87.9065},
    "MIN": {"name": "Minnesota Twins", "cityState": "Minneapolis, MN", "lat": 44.9778, "lon": -93.2650},
    "ML1": {"name": "Milwaukee Braves", "cityState": "Milwaukee, WI", "lat": 43.0389, "lon": -87.9065},
    "ML2": {"name": "Milwaukee Grays", "cityState": "Milwaukee, WI", "lat": 43.0389, "lon": -87.9065},
    "ML3": {"name": "Milwaukee Brewers (AA)", "cityState": "Milwaukee, WI", "lat": 43.0389, "lon": -87.9065},
    "ML4": {"name": "Milwaukee Brewers", "cityState": "Milwaukee, WI", "lat": 43.0389, "lon": -87.9065},
    "MLA": {"name": "Milwaukee Brewers (AL)", "cityState": "Milwaukee, WI", "lat": 43.0389, "lon": -87.9065},
    "MLU": {"name": "Milwaukee Brewers (UA)", "cityState": "Milwaukee, WI", "lat": 43.0389, "lon": -87.9065},
    "MON": {"name": "Montreal Expos", "cityState": "Montreal, QC, Canada", "lat": 45.5017, "lon": -73.5673},
    "NEW": {"name": "Newark Peppers", "cityState": "Newark, NJ", "lat": 40.7357, "lon": -74.1724},
    "NH1": {"name": "New Haven Elm Citys", "cityState": "New Haven, CT", "lat": 41.3083, "lon": -72.9279},
    "NY1": {"name": "New York Giants", "cityState": "New York, NY", "lat": 40.7128, "lon": -74.0060},
    "NY2": {"name": "New York Mutuals", "cityState": "New York, NY", "lat": 40.7128, "lon": -74.0060},
    "NY3": {"name": "New York Mutuals", "cityState": "New York, NY", "lat": 40.7128, "lon": -74.0060},
    "NY4": {"name": "New York Metropolitans", "cityState": "New York, NY", "lat": 40.7128, "lon": -74.0060},
    "NYA": {"name": "New York Yankees", "cityState": "Bronx, NY", "lat": 40.8370, "lon": -73.8654},
    "NYN": {"name": "New York Mets", "cityState": "Flushing, NY", "lat": 40.7590, "lon": -73.8300},
    "NYP": {"name": "New York Giants (PL)", "cityState": "New York, NY", "lat": 40.7128, "lon": -74.0060},
    "OAK": {"name": "Oakland Athletics", "cityState": "West Sacramento, CA", "lat": 38.5804, "lon": -121.5133},
    "PH1": {"name": "Philadelphia Athletics", "cityState": "Philadelphia, PA", "lat": 39.9526, "lon": -75.1652},
    "PH2": {"name": "Philadelphia Centennials", "cityState": "Philadelphia, PA", "lat": 39.9526, "lon": -75.1652},
    "PH3": {"name": "Philadelphia White Stockings", "cityState": "Philadelphia, PA", "lat": 39.9526, "lon": -75.1652},
    "PH4": {"name": "Philadelphia Athletics (AA)", "cityState": "Philadelphia, PA", "lat": 39.9526, "lon": -75.1652},
    "PHA": {"name": "Philadelphia Athletics (AL)", "cityState": "Philadelphia, PA", "lat": 39.9526, "lon": -75.1652},
    "PHI": {"name": "Philadelphia Phillies", "cityState": "Philadelphia, PA", "lat": 39.9526, "lon": -75.1652},
    "PHN": {"name": "Philadelphia Athletics (NL)", "cityState": "Philadelphia, PA", "lat": 39.9526, "lon": -75.1652},
    "PHP": {"name": "Philadelphia Quakers", "cityState": "Philadelphia, PA", "lat": 39.9526, "lon": -75.1652},
    "PHU": {"name": "Philadelphia Keystones", "cityState": "Philadelphia, PA", "lat": 39.9526, "lon": -75.1652},
    "PIT": {"name": "Pittsburgh Pirates", "cityState": "Pittsburgh, PA", "lat": 40.4406, "lon": -79.9959},
    "PRO": {"name": "Providence Grays", "cityState": "Providence, RI", "lat": 41.8240, "lon": -71.4128},
    "PT1": {"name": "Pittsburgh Alleghenys", "cityState": "Pittsburgh, PA", "lat": 40.4406, "lon": -79.9959},
    "PTF": {"name": "Pittsburgh Rebels", "cityState": "Pittsburgh, PA", "lat": 40.4406, "lon": -79.9959},
    "PTP": {"name": "Pittsburgh Burghers", "cityState": "Pittsburgh, PA", "lat": 40.4406, "lon": -79.9959},
    "RC1": {"name": "Rockford Forest Citys", "cityState": "Rockford, IL", "lat": 42.2711, "lon": -89.0940},
    "RC2": {"name": "Rochester Broncos", "cityState": "Rochester, NY", "lat": 43.1566, "lon": -77.6088},
    "RIC": {"name": "Richmond Virginians", "cityState": "Richmond, VA", "lat": 37.5407, "lon": -77.4360},
    "SDN": {"name": "San Diego Padres", "cityState": "San Diego, CA", "lat": 32.7157, "lon": -117.1611},
    "SE1": {"name": "Seattle Pilots", "cityState": "Seattle, WA", "lat": 47.6062, "lon": -122.3321},
    "SEA": {"name": "Seattle Mariners", "cityState": "Seattle, WA", "lat": 47.6062, "lon": -122.3321},
    "SFN": {"name": "San Francisco Giants", "cityState": "San Francisco, CA", "lat": 37.7749, "lon": -122.4194},
    "SL1": {"name": "St. Louis Brown Stockings", "cityState": "St. Louis, MO", "lat": 38.6270, "lon": -90.1994},
    "SL2": {"name": "St. Louis Red Stockings", "cityState": "St. Louis, MO", "lat": 38.6270, "lon": -90.1994},
    "SL3": {"name": "St. Louis Brown Stockings", "cityState": "St. Louis, MO", "lat": 38.6270, "lon": -90.1994},
    "SL4": {"name": "St. Louis Browns (AA)", "cityState": "St. Louis, MO", "lat": 38.6270, "lon": -90.1994},
    "SL5": {"name": "St. Louis Maroons", "cityState": "St. Louis, MO", "lat": 38.6270, "lon": -90.1994},
    "SLA": {"name": "St. Louis Browns (AL)", "cityState": "St. Louis, MO", "lat": 38.6270, "lon": -90.1994},
    "SLF": {"name": "St. Louis Terriers", "cityState": "St. Louis, MO", "lat": 38.6270, "lon": -90.1994},
    "SLN": {"name": "St. Louis Cardinals", "cityState": "St. Louis, MO", "lat": 38.6270, "lon": -90.1994},
    "SLU": {"name": "St. Louis Maroons (UA)", "cityState": "St. Louis, MO", "lat": 38.6270, "lon": -90.1994},
    "SPU": {"name": "St. Paul White Caps", "cityState": "St. Paul, MN", "lat": 44.9537, "lon": -93.0900},
    "SR1": {"name": "Syracuse Stars", "cityState": "Syracuse, NY", "lat": 43.0481, "lon": -76.1474},
    "SR2": {"name": "Syracuse Stars", "cityState": "Syracuse, NY", "lat": 43.0481, "lon": -76.1474},
    "TBA": {"name": "Tampa Bay Rays", "cityState": "St. Petersburg, FL", "lat": 27.7676, "lon": -82.6403},
    "TEX": {"name": "Texas Rangers", "cityState": "Arlington, TX", "lat": 32.7357, "lon": -97.1081},
    "TL1": {"name": "Toledo Blue Stockings", "cityState": "Toledo, OH", "lat": 41.6528, "lon": -83.5379},
    "TL2": {"name": "Toledo Maumees", "cityState": "Toledo, OH", "lat": 41.6528, "lon": -83.5379},
    "TOR": {"name": "Toronto Blue Jays", "cityState": "Toronto, ON, Canada", "lat": 43.6532, "lon": -79.3832},
    "TRN": {"name": "Troy Trojans", "cityState": "Troy, NY", "lat": 42.7284, "lon": -73.6918},
    "TRO": {"name": "Troy Haymakers", "cityState": "Troy, NY", "lat": 42.7284, "lon": -73.6918},
    "WAS": {"name": "Washington Nationals", "cityState": "Washington, DC", "lat": 38.8951, "lon": -77.0364},
    "WIL": {"name": "Wilmington Quicksteps", "cityState": "Wilmington, DE", "lat": 39.7447, "lon": -75.5483},
    "WOR": {"name": "Worcester Ruby Legs", "cityState": "Worcester, MA", "lat": 42.2626, "lon": -71.8023},
    "WS1": {"name": "Washington Senators", "cityState": "Washington, DC", "lat": 38.8951, "lon": -77.0364},
    "WS2": {"name": "Washington Senators", "cityState": "Washington, DC", "lat": 38.8951, "lon": -77.0364},
    "WS3": {"name": "Washington Olympics", "cityState": "Washington, DC", "lat": 38.8951, "lon": -77.0364},
    "WS4": {"name": "Washington Nationals", "cityState": "Washington, DC", "lat": 38.8951, "lon": -77.0364},
    "WS5": {"name": "Washington Blue Legs", "cityState": "Washington, DC", "lat": 38.8951, "lon": -77.0364},
    "WS6": {"name": "Washington Nationals", "cityState": "Washington, DC", "lat": 38.8951, "lon": -77.0364},
    "WS7": {"name": "Washington Nationals (UA)", "cityState": "Washington, DC", "lat": 38.8951, "lon": -77.0364},
    "WS8": {"name": "Washington Nationals (NL)", "cityState": "Washington, DC", "lat": 38.8951, "lon": -77.0364},
    "WS9": {"name": "Washington Statesmen", "cityState": "Washington, DC", "lat": 38.8951, "lon": -77.0364},
    "WSU": {"name": "Washington Nationals (UA)", "cityState": "Washington, DC", "lat": 38.8951, "lon": -77.0364}
}